{"matching_results": 67, "restaurants": [{"id": 2239711722264, "restaurantName": "Dunkin'", "address": "464 W Mount Pleasant Ave", "zipCode": "07039", "phone": "+1 973-422-0007", "website": "https://locations.dunkindonuts.com/en/nj/livingston/464-w-mount-pleasant-ave/352860", "latitude": "40.796947", "longitude": "-74.3449", "stateName": "NJ", "cityName": "Livingston", "hoursInterval": "Sun (6:00 AM - 6:00 PM) | Mon - Sat (6:00 AM - 7:00 PM)", "cuisineType": "Restaurant"}, {"id": 5100879803616, "restaurantName": "Anthony's Coal Fired Pizza", "address": "8119 Town Center Way", "zipCode": "07039", "phone": "+1 973-992-2625", "website": "http://www.acfp.com", "latitude": "40.796246", "longitude": "-74.31445", "stateName": "NJ", "cityName": "Livingston", "hoursInterval": "Sun - Thu (11:00 AM - 9:00 PM) | Fri - Sat (11:00 AM - 10:00 PM)", "cuisineType": "Italian,Pizza,Bar"}, {"id": 8925168541110, "restaurantName": "Cinnabon", "address": "122 Eisenhower Pkwy", "zipCode": "07039", "phone": "+1 973-758-1005", "website": "http://www.cinnabon.com/", "latitude": "40.778145", "longitude": "-74.35563", "stateName": "NJ", "cityName": "Livingston", "hoursInterval": "Sun (7:00 AM - 6:00 PM) | Mon - Fri (7:00 AM - 9:00 PM) | Sat (7:00 AM - 9:30 PM)", "cuisineType": "Restaurant"}, {"id": 30291875313181, "restaurantName": "Tropical Smoothie Cafe", "address": "280 Eisenhower Parkway", "zipCode": "07039", "phone": "+1 973-486-6231", "website": "https://locations.tropicalsmoothiecafe.com/nj/livingston/280-eisenhower-parkway", "latitude": "40.798134", "longitude": "-74.34058", "stateName": "NJ", "cityName": "Livingston", "hoursInterval": "Sun (10:00 AM - 8:00 PM) | Mon - Fri (7:00 AM - 9:00 PM) | Sat (8:00 AM - 9:00 PM)", "cuisineType": "Restaurant"}, {"id": 35385286289958, "restaurantName": "Shake Shack Livingston at the Circle", "address": "280 Eisenhower Parkway", "zipCode": "07039", "phone": "+1 973-629-8329", "website": "https://shakeshack.olo.com/menu/livingston-nj/", "email": "share@shakeshack.com", "latitude": "40.79786", "longitude": "-74.3406", "stateName": "NJ", "cityName": "Livingston", "hoursInterval": "Sun - Thu (11:00 AM - 9:00 PM) | Fri - Sat (11:00 AM - 9:30 PM)", "cuisineType": "American,Fast Food"}, {"id": 32121437616940, "restaurantName": "16 Handles", "address": "4115 Town Center Way", "zipCode": "07039", "phone": "+1 973-369-7226", "website": "https://locations.16handles.com/16-handles-88001489195c", "email": "livingston@16handles.com", "latitude": "40.796814", "longitude": "-74.3152", "stateName": "NJ", "cityName": "Livingston", "hoursInterval": "Sun - Thu (12:00 PM - 9:00 PM) | Fri - Sat (12:00 PM - 10:00 PM)", "cuisineType": "Cafe"}, {"id": 24562956116868, "restaurantName": "Frutta Bowls", "address": "142 S Livingston Ave", "zipCode": "07039", "phone": "+1 973-992-1328", "website": "https://www.fruttabowls.com/location/frutta-bowls-livingston-new-jersey/", "email": "livingston@fruttabowls.com", "latitude": "40.79146", "longitude": "-74.31406", "stateName": "NJ", "cityName": "Livingston", "hoursInterval": "Wed - Fri (10:00 AM - 6:30 PM) | Sat - Tue (10:00 AM - 6:00 PM)", "cuisineType": "Restaurant"}, {"id": 48734427399116, "restaurantName": "Dunkin'", "address": "31-35 East Northfield Rd", "zipCode": "07039", "phone": "+1 973-740-2313", "website": "https://locations.dunkindonuts.com/en/nj/livingston/31-35-east-northfield-rd/344414", "latitude": "40.77413", "longitude": "-74.322945", "stateName": "NJ", "cityName": "Livingston", "hoursInterval": "Sun (6:00 AM - 7:00 PM) | Mon - Sat (5:00 AM - 7:00 PM)", "cuisineType": "American,Cafe"}, {"id": 22342633079778, "restaurantName": "Cinnabon", "address": "112 Eisenhower Pkwy Ste 23A", "zipCode": "07039", "phone": "+1 973-251-2318", "website": "https://locations.cinnabon.com/nj/livingston/112-eisenhower-pkwy", "latitude": "40.776867", "longitude": "-74.353775", "stateName": "NJ", "cityName": "Livingston", "hoursInterval": "Sun (12:00 PM - 6:00 PM) | Mon - Thu (10:00 AM - 8:00 PM) | Fri - Sat (10:00 AM - 9:00 PM)", "cuisineType": "American,Cafe"}, {"id": 29161413733660, "restaurantName": "Paris Baguette", "address": "277 Eisenhower Parkway", "zipCode": "07039", "phone": "+1 862-832-4040", "latitude": "40.797924", "longitude": "-74.342735", "stateName": "NJ", "cityName": "Livingston", "hoursInterval": "Mon - Fri (6:00 AM - 10:00 PM) | Sat - Sun (6:30 AM - 10:00 PM)", "cuisineType": "Cafe"}, {"id": 45202525524541, "restaurantName": "Lithos Restaurant", "address": "405 Eisenhower Parkway", "zipCode": "07039", "phone": "+1 973-758-1111", "website": "http://lithosgreek.restaurant", "email": "lithos405@gmail.com", "latitude": "40.816994", "longitude": "-74.3321", "stateName": "NJ", "cityName": "Livingston", "hoursInterval": "Sun (1:00 PM - 9:00 PM) | Mon - Thu (11:30 AM - 10:00 PM) | Fri (11:30 AM - 11:00 PM) | Sat (4:30 PM - 11:00 PM)", "cuisineType": "Mediterranean,Greek,Seafood"}, {"id": 94508496738072, "restaurantName": "Dunkin'", "address": "43 S Livingston Ave", "zipCode": "07039", "phone": "+1 973-992-3766", "website": "https://locations.dunkindonuts.com/en/nj/livingston/43-s.-livingston-ave/308659", "latitude": "40.794647", "longitude": "-74.3148", "stateName": "NJ", "cityName": "Livingston", "hoursInterval": "Sun - Sat (5:00 AM - 10:00 PM)", "cuisineType": "Restaurant"}, {"id": 132461425651485, "restaurantName": "Livingston Bagels", "address": "37 East Northfield Rd.", "zipCode": "07039", "phone": "+1 973-994-1915", "website": "http://www.livingstonbagel.com", "email": "Jeff@LivingstonBagel.com", "latitude": "40.77396", "longitude": "-74.32268", "stateName": "NJ", "cityName": "Livingston", "hoursInterval": "Sun (6:00 AM - 3:00 PM) | Mon - Wed (6:00 AM - 5:00 PM) | Thu - Fri (6:00 AM - 6:00 PM) | Sat (6:00 AM - 5:00 PM)", "cuisineType": "American,Cafe,Deli"}, {"id": 153504097392844, "restaurantName": "Garbanzo Mediterranean Fresh", "address": "288 Eisenhower Parkway", "zipCode": "07039", "phone": "+1 973-251-2559", "website": "https://order.eatgarbanzo.com/menu/garbanzo-979", "email": "Garbanzo43002g@eatgarbanzo.com", "latitude": "40.798546", "longitude": "-74.34094", "stateName": "NJ", "cityName": "Livingston", "hoursInterval": "Sun - Sat (11:00 AM - 8:00 PM)", "cuisineType": "Restaurant"}, {"id": 41960194653920, "restaurantName": "Blaze Pizza", "address": "280 Eisenhower Parkway", "zipCode": "07039", "phone": "+1 973-786-1822", "website": "https://locations.blazepizza.com/nj/livingston/280-eisenhower-parkway", "latitude": "40.798164", "longitude": "-74.34071", "stateName": "NJ", "cityName": "Livingston", "hoursInterval": "Sun - Sat (11:00 AM - 9:00 PM)", "cuisineType": "Restaurant"}, {"id": 70841146128998, "restaurantName": "Burger King", "address": "Livingston Mall", "zipCode": "07039", "phone": "+1 973-994-1394", "website": "https://burgerking.com/store-locator/store/restaurant_10085", "email": "hr@BurgerBarnLLC.com", "latitude": "40.77623", "longitude": "-74.35352", "stateName": "NJ", "cityName": "Livingston", "hoursInterval": "Mon - Thu (10:00 AM - 7:00 PM) | Fri - Sat (10:00 AM - 8:00 PM)", "cuisineType": "Restaurant"}, {"id": 107076758090550, "restaurantName": "Argyle Marketplace", "address": "359 E Northfield Rd", "zipCode": "07039", "phone": "+1 973-992-1659", "website": "https://argylemarketplace.com/", "email": "Argylemarketplace@gmail.com", "latitude": "40.770744", "longitude": "-74.29977", "stateName": "NJ", "cityName": "Livingston", "hoursInterval": "Mon - Fri (8:00 AM - 3:00 PM) | Sat (8:00 AM - 2:00 PM)", "cuisineType": "Deli"}, {"id": 278474155913678, "restaurantName": "Popeyes Louisiana Kitchen", "address": "112 Eisenhower Pkw", "zipCode": "07039", "phone": "+1 973-533-0740", "website": "https://www.popeyes.com/store-locator/store/restaurant_84045", "email": "pop.livingston@pnrestaurants.com", "latitude": "40.77687", "longitude": "-74.35373", "stateName": "NJ", "cityName": "Livingston", "hoursInterval": "Sun (12:00 PM - 6:00 PM) | Mon - Sat (11:00 AM - 7:30 PM)", "cuisineType": "Restaurant"}, {"id": 129340195872, "restaurantName": "Turanos pizza kitchen llc", "address": "69 E Northfield Rd Flr 1", "zipCode": "07039-0000", "phone": "+1 973-758-8111", "website": "https://www.facebook.com/Turanospizzakitchen/", "latitude": "40.773754", "longitude": "-74.320915", "stateName": "NJ", "cityName": "Livingston", "hoursInterval": "Sun (12:00 PM - 8:00 PM) | Mon - Sat (10:00 AM - 9:00 PM)", "cuisineType": "Italian,Pizza"}, {"id": 96492861772080, "restaurantName": "Assado Portugese Steakhouse", "address": "222 N Livingston Ave", "zipCode": "07039-1252", "phone": "+1 973-422-0501", "website": "http://assadonj.com", "latitude": "40.80797", "longitude": "-74.31263", "stateName": "NJ", "cityName": "Livingston", "hoursInterval": "Sun (11:00 AM - 10:00 PM) | Tue - Thu (11:00 AM - 10:00 PM) | Fri - Sat (11:00 AM - 10:30 PM)", "cuisineType": "European,Portuguese"}, {"id": 94250836722000, "restaurantName": "The Feathered Fox", "address": "550 W Mount Pleasant Ave", "zipCode": "07039-1608", "latitude": "40.79721", "longitude": "-74.35037", "stateName": "NJ", "cityName": "Livingston", "hoursInterval": "Sun (10:00 AM - 3:00 PM) | Tue - Thu (4:00 PM - 10:00 PM) | Fri - Sat (4:00 PM - 11:00 PM)", "cuisineType": "Restaurant"}, {"id": 8089183569291, "restaurantName": "Ike's Bagel Cafe", "address": "277 Eisenhower Pkwy", "zipCode": "07039-1715", "phone": "+1 973-369-7528", "website": "https://www.facebook.com/Ikesbagelcafe/", "latitude": "40.79898", "longitude": "-74.34288", "stateName": "NJ", "cityName": "Livingston", "hoursInterval": "Mon - Fri (7:00 AM - 3:00 PM) | Sat (7:00 AM - 2:00 PM)", "cuisineType": "Deli"}, {"id": 127721028414078, "restaurantName": "Mezza Livingston", "address": "277 Eisenhower Pkwy", "zipCode": "07039-1715", "phone": "+1 973-992-9300", "website": "http://www.mezzalivingston.com", "email": "mezzalivingston@gmail.com", "latitude": "40.79898", "longitude": "-74.34288", "stateName": "NJ", "cityName": "Livingston", "hoursInterval": "Sun - Thu (5:00 PM - 9:00 PM) | Sun - Sat (11:30 AM - 3:00 PM) | Fri - Sat (5:00 PM - 10:00 PM)", "cuisineType": "Mediterranean"}, {"id": 55217525711500, "restaurantName": "Bubbakoo's Burritos", "address": "277 Eisenhower Pkwy", "zipCode": "07039-1715", "phone": "+1 973-488-5898", "website": "https://www.bubbakoos.com/", "email": "customersupport@bubbakoos.com", "latitude": "40.797924", "longitude": "-74.342735", "stateName": "NJ", "cityName": "Livingston", "hoursInterval": "Sun - Sat (11:00 AM - 9:00 PM)", "cuisineType": "Healthy,Mexican,Fast Food"}, {"id": 173446836865974, "restaurantName": "The Twisted Tulip", "address": "277 Eisenhower Pkwy", "zipCode": "07039-1715", "phone": "+1 973-369-7142", "website": "http://Www.twistedtulipnj.com", "email": "Hello@twistedtulipnj.com", "latitude": "40.798546", "longitude": "-74.34195", "stateName": "NJ", "cityName": "Livingston", "hoursInterval": "Mon - Fri (7:00 AM - 7:00 PM) | Sat - Sun (9:00 AM - 6:00 PM)", "cuisineType": "Cafe"}, {"id": 296235093832160, "restaurantName": "Zen Japanese Cuisine", "address": "277 Eisenhower Pkwy", "zipCode": "07039-1715", "phone": "+1 973-533-6828", "website": "http://zensushi.space/", "latitude": "40.79898", "longitude": "-74.34288", "stateName": "NJ", "cityName": "Livingston", "hoursInterval": "Sun - Sat (4:00 PM - 10:00 PM) | Mon - Sat (11:30 AM - 2:30 PM)", "cuisineType": "Asian,Sushi,Japanese"}, {"id": 155323835119840, "restaurantName": "The Landmark", "address": "259 W Mount Pleasant Ave", "zipCode": "07039-2726", "phone": "+1 973-533-9787", "website": "http://landmarklivingston.com", "latitude": "40.79568", "longitude": "-74.3342", "stateName": "NJ", "cityName": "Livingston", "hoursInterval": "Sun (12:00 PM - 2:00 AM) | Mon - Sat (11:30 AM - 2:00 AM)", "cuisineType": "American,Bar,Pub"}, {"id": 40871341625400, "restaurantName": "Blaze Pizza", "address": "374 W Mount Pleasant Ave", "zipCode": "07039-2748", "phone": "+1 973-786-1822", "website": "http://www.blazepizza.com", "latitude": "40.798016", "longitude": "-74.34071", "stateName": "NJ", "cityName": "Livingston", "hoursInterval": "Sun (11:00 AM - 10:00 PM) | Mon - Thu (11:00 AM - 9:30 PM) | Fri (11:00 AM - 10:00 PM) | Sat (11:00 AM - 9:30 PM)", "cuisineType": "Italian,Pizza"}, {"id": 380144476920, "restaurantName": "Philly Pretzel Factory", "address": "21 W Mount Pleasant Ave", "zipCode": "07039-2924", "phone": "+1 973-994-1004", "website": "http://www.phillysoftpretzelfactory.com/#/home/", "latitude": "40.79542", "longitude": "-74.31618", "stateName": "NJ", "cityName": "Livingston", "hoursInterval": "Sun (10:00 AM - 4:00 PM) | Tue - Sat (10:00 AM - 6:00 PM)", "cuisineType": "Restaurant"}, {"id": 119674341622440, "restaurantName": "Livingston Pizza", "address": "73 W Mount Pleasant Ave", "zipCode": "07039-2928", "phone": "+1 973-740-0066", "website": "http://www.livingston-pizza.com/", "latitude": "40.79496", "longitude": "-74.32057", "stateName": "NJ", "cityName": "Livingston", "hoursInterval": "Sun - Thu (11:00 AM - 9:00 PM) | Fri - Sat (11:00 AM - 10:00 PM)", "cuisineType": "Pizza"}, {"id": 158706051068460, "restaurantName": "Jerusalem West", "address": "99 W Mount Pleasant Ave", "zipCode": "07039-2928", "phone": "+1 973-533-1424", "website": "http://www.jerusalem-gourmet.com/", "latitude": "40.79486", "longitude": "-74.31975", "stateName": "NJ", "cityName": "Livingston", "hoursInterval": "Sun (11:00 AM - 9:00 PM) | Mon (11:00 AM - 8:00 PM) | Tue - Thu (11:00 AM - 9:00 PM) | Fri (11:00 AM - 2:30 PM)", "cuisineType": "American,Mediterranean,Pizza,Sushi,Middle Eastern,Israeli"}, {"id": 38979858729295, "restaurantName": "Pizzeta Enoteca", "address": "62 W Mount Pleasant Ave", "zipCode": "07039-2929", "phone": "+1 973-740-2385", "website": "http://pizzetausa.com", "latitude": "40.79569", "longitude": "-74.31828", "stateName": "NJ", "cityName": "Livingston", "hoursInterval": "Sun (11:30 AM - 9:00 PM) | Mon - Thu (11:30 AM - 10:00 PM) | Fri - Sat (11:30 AM - 11:00 PM)", "cuisineType": "Italian,Bar,Pub"}, {"id": 49547224818966, "restaurantName": "Bagel Nosh", "address": "1 W Mt Pleasant Ave", "zipCode": "07039-2972", "phone": "+1 973-535-0751", "latitude": "40.79559", "longitude": "-74.31563", "stateName": "NJ", "cityName": "Livingston", "hoursInterval": "Sun (6:00 AM - 3:00 PM) | Mon - Sat (6:00 AM - 3:30 PM)", "cuisineType": "Restaurant"}, {"id": 97237032150744, "restaurantName": "Chocolate Works", "address": "1170 Town Center Way", "zipCode": "07039-2977", "phone": "+1 973-740-9090", "website": "http://chocolateworks.com", "latitude": "40.79656", "longitude": "-74.31446", "stateName": "NJ", "cityName": "Livingston", "hoursInterval": "Sun (11:00 AM - 5:00 PM) | Mon - Sat (11:00 AM - 6:00 PM)", "cuisineType": "Fast Food"}, {"id": 29497125270240, "restaurantName": "Fan Bistro", "address": "4175 Town Center Way", "zipCode": "07039-2982", "phone": "+1 973-758-8108", "website": "http://www.fanbistro.com", "latitude": "40.7966", "longitude": "-74.31485", "stateName": "NJ", "cityName": "Livingston", "hoursInterval": "Sun (12:00 PM - 10:00 PM) | Mon - Thu (11:00 AM - 10:00 PM) | Fri - Sat (11:00 AM - 11:00 PM)", "cuisineType": "Chinese,Asian,Sushi,Japanese"}, {"id": 138412302145224, "restaurantName": "THAVMA Mediterranean Grill", "address": "6230 Town Center Way", "zipCode": "07039-2987", "phone": "+1 973-992-8999", "website": "http://www.thavmagrill.com", "email": "info@thavmagrill.com", "latitude": "40.79623", "longitude": "-74.31475", "stateName": "NJ", "cityName": "Livingston", "hoursInterval": "Sun (12:00 PM - 9:00 PM) | Mon - Thu (11:30 AM - 9:00 PM) | Fri - Sat (11:30 AM - 9:30 PM)", "cuisineType": "Mediterranean,Greek"}, {"id": 192374101472956, "restaurantName": "Tony Boy's Sandwich House", "address": "10 E Mount Pleasant Ave", "zipCode": "07039-3002", "phone": "+1 973-994-1089", "website": "http://www.tonyboysnj.com", "latitude": "40.79562", "longitude": "-74.31487", "stateName": "NJ", "cityName": "Livingston", "hoursInterval": "Sun - Fri (10:30 AM - 9:00 PM) | Sat (11:00 AM - 9:00 PM)", "cuisineType": "Deli"}, {"id": 123890330853774, "restaurantName": "Anthony Marra's Restaurant", "address": "18 E Mount Pleasant Ave", "zipCode": "07039-3002", "phone": "+1 973-992-8911", "website": "http://marraslivingston.com", "latitude": "40.795933", "longitude": "-74.31446", "stateName": "NJ", "cityName": "Livingston", "hoursInterval": "Sun - Tue (5:00 PM - 9:00 PM) | Mon - Fri (11:00 AM - 2:30 PM) | Wed - Sat (5:00 PM - 10:00 PM)", "cuisineType": "Italian"}, {"id": 83711058409550, "restaurantName": "The Greek Place", "address": "55 E Mount Pleasant Ave", "zipCode": "07039-3003", "latitude": "40.79653", "longitude": "-74.31289", "stateName": "NJ", "cityName": "Livingston", "hoursInterval": "Tue - Sun (11:00 AM - 9:00 PM)", "cuisineType": "Restaurant"}, {"id": 218396995020664, "restaurantName": "China Garden", "address": "57 E Mount Pleasant Ave", "zipCode": "07039-3003", "phone": "+1 973-992-2838", "latitude": "40.79664", "longitude": "-74.31279", "stateName": "NJ", "cityName": "Livingston", "hoursInterval": "Sun - Thu (11:00 AM - 10:00 PM) | Fri - Sat (11:00 AM - 11:00 PM)", "cuisineType": "Chinese"}, {"id": 7744859592660, "restaurantName": "Ritz Diner", "address": "72 E Mount Pleasant Ave", "zipCode": "07039-3004", "phone": "+1 973-533-1213", "website": "http://www.dinersdriveinsdiveslocations.com/the-ritz-diner-new-jersey.html", "latitude": "40.796387", "longitude": "-74.31217", "stateName": "NJ", "cityName": "Livingston", "hoursInterval": "Sun - Sat (6:00 AM - 12:00 AM)", "cuisineType": "American,Diner"}, {"id": 2600941656366, "restaurantName": "Eppes Essen", "address": "105 E Mount Pleasant Ave", "zipCode": "07039-3005", "phone": "+1 973-994-1120", "website": "http://www.eppesessen.com/", "latitude": "40.796986", "longitude": "-74.31068", "stateName": "NJ", "cityName": "Livingston", "hoursInterval": "Sun (10:00 AM - 7:00 PM) | Mon - Sat (10:00 AM - 8:00 PM)", "cuisineType": "American,Deli,Soups"}, {"id": 44240393122681, "restaurantName": "Nana's Deli", "address": "127 S Livingston Ave", "zipCode": "07039-3010", "phone": "+1 973-740-1940", "website": "http://www.nanasdeli.com/", "latitude": "40.79201", "longitude": "-74.31378", "stateName": "NJ", "cityName": "Livingston", "hoursInterval": "Sun (10:00 AM - 3:00 PM) | Mon - Fri (10:00 AM - 6:30 PM) | Sat (10:00 AM - 5:00 PM)", "cuisineType": "American,Deli"}, {"id": 106332195147737, "restaurantName": "Bonvini's", "address": "127 S Livingston Ave", "zipCode": "07039-3010", "phone": "+1 973-500-3409", "email": "Bonvinislivingston@gmail.com", "latitude": "40.791912", "longitude": "-74.31361", "stateName": "NJ", "cityName": "Livingston", "hoursInterval": "Sun (12:00 PM - 6:00 PM) | Mon - Thu (10:30 AM - 7:00 PM) | Fri (10:30 AM - 8:30 PM) | Sat (11:30 AM - 8:00 PM)", "cuisineType": "Italian,Pizza"}, {"id": 224366521823500, "restaurantName": "Oriental Kitchen", "address": "184 S Livingston Ave Ste 3", "zipCode": "07039-3013", "phone": "+1 973-992-5332", "website": "https://www.facebook.com/pages/Oriental-Kitchen/111853032179478", "email": "info@orientalkitchentakeout.com", "latitude": "40.7898", "longitude": "-74.31439", "stateName": "NJ", "cityName": "Livingston", "hoursInterval": "Sun (12:15 PM - 9:30 PM) | Mon (11:15 AM - 9:30 PM) | Wed - Sat (11:15 AM - 9:30 PM)", "cuisineType": "Chinese,Asian"}, {"id": 204012011071560, "restaurantName": "Haagen Dazs", "address": "79 S Livingston Ave", "zipCode": "07039-3025", "phone": "+1 973-533-0298", "website": "http://www.haagendazsshoppecompany.com/", "latitude": "40.79313", "longitude": "-74.31418", "stateName": "NJ", "cityName": "Livingston", "hoursInterval": "Mon - Sat (12:00 PM - 10:00 PM)", "cuisineType": "Restaurant"}, {"id": 207117560606570, "restaurantName": "Dozo Sushi & Asian Cuisine", "address": "163 S Livingston Ave", "zipCode": "07039-3029", "phone": "+1 973-992-8881", "website": "http://www.dozonj.com/", "latitude": "40.790714", "longitude": "-74.31286", "stateName": "NJ", "cityName": "Livingston", "hoursInterval": "Sun (1:00 PM - 9:30 PM) | Mon - Thu (11:30 AM - 9:45 PM) | Fri (11:30 AM - 10:45 PM) | Sat (12:00 PM - 10:45 PM)", "cuisineType": "Restaurant"}, {"id": 4891592122818, "restaurantName": "Cocco Bello Cafe", "address": "155 S Livingston Ave", "zipCode": "07039-3030", "phone": "+1 973-992-1999", "website": "http://coccobellocafelivingston.enjoyablecafes.space", "latitude": "40.79105", "longitude": "-74.31312", "stateName": "NJ", "cityName": "Livingston", "hoursInterval": "Sun (3:00 AM - 7:00 AM) | Mon (2:00 AM - 5:30 AM) | Tue (1:30 AM - 3:30 AM) | Wed (4:30 AM - 5:30 AM) | Thu (4:30 AM - 7:00 AM) | Fri (1:30 AM - 4:30 AM) | Sat (4:00 AM - 5:30 AM)", "cuisineType": "Italian"}, {"id": 5678071566570, "restaurantName": "Cammarata's Pizza", "address": "126 S Livingston Ave", "zipCode": "07039-3036", "phone": "+1 973-994-0615", "website": "http://cammarataspizza.com", "email": "info@cammarataspizza.com", "latitude": "40.79188", "longitude": "-74.3142", "stateName": "NJ", "cityName": "Livingston", "hoursInterval": "Sun (12:00 PM - 7:00 PM) | Tue - Thu (11:00 AM - 7:00 PM) | Fri (10:00 AM - 8:00 PM) | Sat (11:00 AM - 7:00 PM)", "cuisineType": "Italian,Pizza"}, {"id": 175058213552344, "restaurantName": "Shake Shack", "address": "292 Eisenhower Pkwy", "zipCode": "07039-3928", "phone": "+1 609-458-1705", "website": "http://www.shakeshack.com", "latitude": "40.79826", "longitude": "-74.33861", "stateName": "NJ", "cityName": "Livingston", "hoursInterval": "Mon - Thu (11:00 AM - 9:00 PM) | Fri (11:00 AM - 9:30 PM) | Sat (11:00 AM - 5:00 PM)", "cuisineType": "American,Fast Food"}, {"id": 42949271264700, "restaurantName": "7-Eleven", "address": "280 S Livingston", "zipCode": "07039-4022", "phone": "+1 973-994-3294", "website": "https://www.7-eleven.com/locations/nj/livingston/280-s-livingston-11437", "latitude": "40.7868302", "longitude": "-74.3138798", "stateName": "NJ", "cityName": "Livingston", "hoursInterval": "Open 24/7", "cuisineType": "Fast Food"}, {"id": 8554553309205, "restaurantName": "Peking Restaurant", "address": "498 S Livingston Ave Ste 1", "zipCode": "07039-4300", "latitude": "40.77568", "longitude": "-74.3233", "stateName": "NJ", "cityName": "Livingston", "cuisineType": "Restaurant"}, {"id": 2009837674560, "restaurantName": "Babushka's Deli", "address": "491 S Livingston Ave", "zipCode": "07039-4327", "phone": "+1 973-533-0394", "website": "http://www.babushkasdeli.com/", "latitude": "40.77543", "longitude": "-74.32265", "stateName": "NJ", "cityName": "Livingston", "hoursInterval": "Sun (10:00 AM - 4:00 PM) | Mon - Sat (10:00 AM - 6:00 PM)", "cuisineType": "Deli"}, {"id": 6829254973372, "restaurantName": "Anthony Francos Pizza", "address": "489 S Livingston Ave", "zipCode": "07039-4327", "phone": "+1 973-535-1998", "website": "http://www.afpizza.com", "latitude": "40.77513", "longitude": "-74.32211", "stateName": "NJ", "cityName": "Livingston", "hoursInterval": "Sun - Thu (10:00 AM - 10:00 PM) | Fri - Sat (10:00 AM - 11:00 PM)", "cuisineType": "Italian,Pizza"}, {"id": 121354661035655, "restaurantName": "Shop Rite Cafe", "address": "483 S Livingston Ave", "zipCode": "07039-4327", "phone": "+1 973-740-2004", "website": "https://www.facebook.com/ShopRite.Livingston/", "latitude": "40.77521", "longitude": "-74.32107", "stateName": "NJ", "cityName": "Livingston", "hoursInterval": "Sun (6:30 AM - 7:00 PM) | Mon - Sat (6:30 AM - 11:00 PM)", "cuisineType": "American,Sushi"}, {"id": 36973877677600, "restaurantName": "Edible Arrangements", "address": "523 S Livingston Ave", "zipCode": "07039-4327", "latitude": "40.77455", "longitude": "-74.32331", "stateName": "NJ", "cityName": "Livingston", "cuisineType": "American"}, {"id": 150394770355, "restaurantName": "Super-Duper Bagels", "address": "498 S Livingston Ave Ste 4", "zipCode": "07039-4352", "phone": "+1 973-533-1703", "website": "https://www.facebook.com/SuperDuperBagels/", "email": "order@superduperbagels.com", "latitude": "40.77568", "longitude": "-74.3233", "stateName": "NJ", "cityName": "Livingston", "hoursInterval": "Sun (5:30 AM - 1:00 PM) | Mon - Thu (5:30 AM - 3:00 PM) | Fri (5:30 AM - 2:00 PM)", "cuisineType": "Restaurant"}, {"id": 141178944566205, "restaurantName": "Sweet Basil's Cafe", "address": "498 S Livingston Ave", "zipCode": "07039-4352", "phone": "+1 973-994-3600", "website": "http://www.sweetbasilscafe.com", "email": "sweetbasilscafe@gmail.com", "latitude": "40.775593", "longitude": "-74.32313", "stateName": "NJ", "cityName": "Livingston", "hoursInterval": "Sun - Sat (10:00 AM - 8:00 PM)", "cuisineType": "American"}, {"id": 117042761009676, "restaurantName": "Bagels 4U", "address": "69 E Northfield Rd", "zipCode": "07039-4501", "phone": "+1 973-716-0556", "website": "http://www.bagels4u.com/", "latitude": "40.77379", "longitude": "-74.32095", "stateName": "NJ", "cityName": "Livingston", "hoursInterval": "Sun - Sat (5:30 AM - 3:00 PM)", "cuisineType": "Restaurant"}, {"id": 26778168497118, "restaurantName": "Master Pizza", "address": "379 E Northfield Rd", "zipCode": "07039-4809", "phone": "+1 973-992-4500", "website": "http://masterpizzaonline.com", "latitude": "40.77028", "longitude": "-74.29909", "stateName": "NJ", "cityName": "Livingston", "hoursInterval": "Sun (12:00 PM - 10:00 PM) | Mon - Thu (11:00 AM - 10:00 PM) | Fri - Sat (11:00 AM - 11:00 PM)", "cuisineType": "Italian,Pizza"}, {"id": 26812281797990, "restaurantName": "Livingston Diner", "address": "360 E Northfield Rd", "zipCode": "07039-4812", "phone": "+1 973-992-6339", "website": "http://livingstondiner.webs.com/", "latitude": "40.77019", "longitude": "-74.30002", "stateName": "NJ", "cityName": "Livingston", "hoursInterval": "Sun (8:00 AM - 8:00 PM) | Mon - Sat (8:00 AM - 9:00 PM)", "cuisineType": "American,Diner"}, {"id": 24565886245848, "restaurantName": "Sarku Japan", "address": "112 Eisenhower Pkwy Ste 22", "zipCode": "07039-4995", "phone": "+1 973-994-2702", "website": "http://www.sarkujapan.com", "latitude": "40.77572", "longitude": "-74.35639", "stateName": "NJ", "cityName": "Livingston", "hoursInterval": "Sun (12:00 PM - 6:00 PM) | Mon - Thu (11:00 AM - 8:00 PM) | Fri - Sat (10:00 AM - 9:00 PM)", "cuisineType": "Japanese"}, {"id": 49331499627421, "restaurantName": "Livingston Steak & Pizza", "address": "112 Eisenhower Pkwy", "zipCode": "07039-4995", "phone": "+1 973-251-2070", "latitude": "40.77688", "longitude": "-74.35377", "stateName": "NJ", "cityName": "Livingston", "hoursInterval": "Sun (12:00 PM - 6:00 PM) | Mon - Thu (11:00 AM - 7:30 PM) | Fri - Sat (10:00 AM - 8:30 PM)", "cuisineType": "Restaurant"}, {"id": 163208849811528, "restaurantName": "Burger King", "address": "112 Eisenhower Pkwy", "zipCode": "07039-4995", "phone": "+1 201-445-0055", "website": "http://www.bk.com", "latitude": "40.77572", "longitude": "-74.35639", "stateName": "NJ", "cityName": "Livingston", "hoursInterval": "Mon - Fri (6:00 AM - 11:00 PM) | Sat - Sun (6:00 AM - 1:00 AM)", "cuisineType": "Restaurant"}, {"id": 5987525417525, "restaurantName": "Seymour's Deli & Bakery", "address": "567 S Livingston Ave", "zipCode": "07039-5410", "phone": "+1 973-992-1763", "website": "http://seymourscafe.com", "email": "seymoursdeli@gmail.com", "latitude": "40.79553", "longitude": "-74.31742", "stateName": "NJ", "cityName": "Livingston", "hoursInterval": "Sun (7:00 AM - 3:00 PM) | Mon - Sat (6:00 AM - 5:00 PM)", "cuisineType": "Healthy,Cafe,Fast Food,Deli,Soups"}, {"id": 1224825461129, "restaurantName": "Calabria's", "address": "588 S Livingston Ave", "zipCode": "07039-5413", "phone": "+1 973-992-8496", "website": "http://www.calabrianj.com", "email": "calabrias1@aol.com", "latitude": "40.773438", "longitude": "-74.32594", "stateName": "NJ", "cityName": "Livingston", "hoursInterval": "Sun (11:00 AM - 10:00 PM) | Mon - Sat (10:00 AM - 10:00 PM)", "cuisineType": "Italian,Pizza"}, {"id": 81669018831976, "restaurantName": "Nero's Grille", "address": "618 S Livingston Ave", "zipCode": "07039-5413", "phone": "+1 973-994-1971", "website": "http://nerosgrill.com", "latitude": "40.772846", "longitude": "-74.327225", "stateName": "NJ", "cityName": "Livingston", "hoursInterval": "Sun (4:30 PM - 9:30 PM) | Mon - Thu (11:30 AM - 10:00 PM) | Fri (11:30 AM - 11:00 PM) | Sat (5:00 PM - 11:00 PM)", "cuisineType": "American,Italian"}]}